[
  {
    "name": "Francis Fowler",
    "phoneNumber": "+XX (983) 438-2287",
    "description": "description 26",
    "imageUrl": "https://demonuts.com//Demonuts//SampleImages//iva.jpg",
    "latitude": 65.543171
  },
  {
    "name": "Walker Moses",
    "phoneNumber": "+XX (853) 533-3541",
    "description": "description 13",
    "imageUrl": "https://demonuts.com/Demonuts/SampleImages/roger.jpg",
    "latitude": -24.169431
  },
  {
    "name": "Mari Evans",
    "phoneNumber": "+XX (866) 541-2598",
    "description": "description 28",
    "imageUrl": "https://demonuts.com/Demonuts/SampleImages/shara.jpg",
    "latitude": -47.688063
  },
  {
    "name": "Felicia Hines",
    "phoneNumber": "+XX (809) 498-3033",
    "description": "description 7",
    "imageUrl": "https://demonuts.com//Demonuts//SampleImages//iva.jpg",
    "latitude": -59.568933
  },
  {
    "name": "Kelly Daniel",
    "phoneNumber": "+XX (899) 572-2738",
    "description": "description 20",
    "imageUrl": "https://api.androidhive.info/json/images/tom_hardy.jpg",
    "latitude": -63.275804
  },
  {
    "name": "Barry Sweet",
    "phoneNumber": "+XX (909) 571-2591",
    "description": "description 26",
    "imageUrl": "https://demonuts.com/Demonuts/SampleImages/roger.jpg",
    "latitude": 87.509654
  },
  {
    "name": "Wiggins Schultz",
    "phoneNumber": "+XX (827) 564-3871",
    "description": "description 12",
    "imageUrl": "https://api.androidhive.info/json/images/johnny.jpg",
    "latitude": -76.650591
  },
  {
    "name": "Pollard Ellis",
    "phoneNumber": "+XX (856) 495-2374",
    "description": "description 4",
    "imageUrl": "https://api.androidhive.info/json/images/tom_hardy.jpg",
    "latitude": 20.742157
  },
  {
    "name": "Hendricks Douglas",
    "phoneNumber": "+XX (843) 557-2024",
    "description": "description 0",
    "imageUrl": "https://demonuts.com/Demonuts/SampleImages/roger.jpg",
    "latitude": -66.88809
  },
  {
    "name": "Davidson Vazquez",
    "phoneNumber": "+XX (912) 440-3803",
    "description": "description 14",
    "imageUrl": "https://api.androidhive.info/json/images/johnny.jpg",
    "latitude": -14.06205
  },
  {
    "name": "Lilly Joseph",
    "phoneNumber": "+XX (983) 523-3742",
    "description": "description 25",
    "imageUrl": "https://demonuts.com//Demonuts//SampleImages//iva.jpg",
    "latitude": 67.955176
  },
  {
    "name": "Judy Frye",
    "phoneNumber": "+XX (917) 586-3377",
    "description": "description 1",
    "imageUrl": "https://demonuts.com/Demonuts/SampleImages/shara.jpg",
    "latitude": 79.660821
  },
  {
    "name": "Aisha Ratliff",
    "phoneNumber": "+XX (844) 559-3414",
    "description": "description 3",
    "imageUrl": "https://demonuts.com//Demonuts//SampleImages//iva.jpg",
    "latitude": 43.913258
  }
]
